
[
  {"name": "Tunis Carthage International Airport", "city": "Tunis", "country": "Tunisia", "countryCode": "TN", "continent": "Africa", "iata": "TUN", "icao": "DTTA", "lat": 36.851, "lon": 10.2273, "alt": 22, "tz": "Africa/Tunis"},
  {"name": "Djerba-Zarzis International Airport", "city": "Djerba", "country": "Tunisia", "countryCode": "TN", "continent": "Africa", "iata": "DJE", "icao": "DTTJ", "lat": 33.875, "lon": 10.7756, "alt": 19, "tz": "Africa/Tunis"},
  {"name": "Monastir Habib Bourguiba International Airport", "city": "Monastir", "country": "Tunisia", "countryCode": "TN", "continent": "Africa", "iata": "MIR", "icao": "DTMB", "lat": 35.7581, "lon": 10.7547, "alt": 9, "tz": "Africa/Tunis"},
  {"name": "Cairo International Airport", "city": "Cairo", "country": "Egypt", "countryCode": "EG", "continent": "Africa", "iata": "CAI", "icao": "HECA", "lat": 30.1219, "lon": 31.4056, "alt": 382, "tz": "Africa/Cairo"},
  {"name": "Mohammed V International Airport", "city": "Casablanca", "country": "Morocco", "countryCode": "MA", "continent": "Africa", "iata": "CMN", "icao": "GMMN", "lat": 33.3675, "lon": -7.5899, "alt": 656, "tz": "Africa/Casablanca"},
  {"name": "O.R. Tambo International Airport", "city": "Johannesburg", "country": "South Africa", "countryCode": "ZA", "continent": "Africa", "iata": "JNB", "icao": "FAOR", "lat": -26.1392, "lon": 28.246, "alt": 5558, "tz": "Africa/Johannesburg"},
  {"name": "Murtala Muhammed International Airport", "city": "Lagos", "country": "Nigeria", "countryCode": "NG", "continent": "Africa", "iata": "LOS", "icao": "DNMM", "lat": 6.5774, "lon": 3.3211, "alt": 135, "tz": "Africa/Lagos"},
  {"name": "Bole International Airport", "city": "Addis Ababa", "country": "Ethiopia", "countryCode": "ET", "continent": "Africa", "iata": "ADD", "icao": "HAAB", "lat": 8.9779, "lon": 38.7993, "alt": 7656, "tz": "Africa/Addis_Ababa"},
  {"name": "Dubai International Airport", "city": "Dubai", "country": "United Arab Emirates", "countryCode": "AE", "continent": "Asia", "iata": "DXB", "icao": "OMDB", "lat": 25.2528, "lon": 55.3644, "alt": 62, "tz": "Asia/Dubai"},
  {"name": "Tokyo Haneda Airport", "city": "Tokyo", "country": "Japan", "countryCode": "JP", "continent": "Asia", "iata": "HND", "icao": "RJTT", "lat": 35.5523, "lon": 139.7798, "alt": 35, "tz": "Asia/Tokyo"},
  {"name": "Beijing Capital International Airport", "city": "Beijing", "country": "China", "countryCode": "CN", "continent": "Asia", "iata": "PEK", "icao": "ZBAA", "lat": 40.08, "lon": 116.5845, "alt": 116, "tz": "Asia/Shanghai"},
  {"name": "Singapore Changi Airport", "city": "Singapore", "country": "Singapore", "countryCode": "SG", "continent": "Asia", "iata": "SIN", "icao": "WSSS", "lat": 1.3502, "lon": 103.9944, "alt": 22, "tz": "Asia/Singapore"},
  {"name": "Istanbul Airport", "city": "Istanbul", "country": "Turkey", "countryCode": "TR", "continent": "Europe", "iata": "IST", "icao": "LTFM", "lat": 41.2753, "lon": 28.7519, "alt": 325, "tz": "Europe/Istanbul"},
  {"name": "Paris Charles de Gaulle Airport", "city": "Paris", "country": "France", "countryCode": "FR", "continent": "Europe", "iata": "CDG", "icao": "LFPG", "lat": 49.0128, "lon": 2.55, "alt": 392, "tz": "Europe/Paris"},
  {"name": "Frankfurt Airport", "city": "Frankfurt", "country": "Germany", "countryCode": "DE", "continent": "Europe", "iata": "FRA", "icao": "EDDF", "lat": 50.0333, "lon": 8.5706, "alt": 364, "tz": "Europe/Berlin"},
  {"name": "London Heathrow Airport", "city": "London", "country": "United Kingdom", "countryCode": "GB", "continent": "Europe", "iata": "LHR", "icao": "EGLL", "lat": 51.4706, "lon": -0.4619, "alt": 83, "tz": "Europe/London"},
  {"name": "Amsterdam Airport Schiphol", "city": "Amsterdam", "country": "Netherlands", "countryCode": "NL", "continent": "Europe", "iata": "AMS", "icao": "EHAM", "lat": 52.3086, "lon": 4.7639, "alt": -11, "tz": "Europe/Amsterdam"},
  {"name": "Adolfo Suárez Madrid-Barajas Airport", "city": "Madrid", "country": "Spain", "countryCode": "ES", "continent": "Europe", "iata": "MAD", "icao": "LEMD", "lat": 40.4936, "lon": -3.5668, "alt": 1998, "tz": "Europe/Madrid"},
  {"name": "Leonardo da Vinci-Fiumicino Airport", "city": "Rome", "country": "Italy", "countryCode": "IT", "continent": "Europe", "iata": "FCO", "icao": "LIRF", "lat": 41.8045, "lon": 12.2508, "alt": 13, "tz": "Europe/Rome"},
  {"name": "Hartsfield-Jackson Atlanta International Airport", "city": "Atlanta", "country": "United States", "countryCode": "US", "continent": "North America", "iata": "ATL", "icao": "KATL", "lat": 33.6367, "lon": -84.4281, "alt": 1026, "tz": "America/New_York"},
  {"name": "Los Angeles International Airport", "city": "Los Angeles", "country": "United States", "countryCode": "US", "continent": "North America", "iata": "LAX", "icao": "KLAX", "lat": 33.9425, "lon": -118.4081, "alt": 126, "tz": "America/Los_Angeles"},
  {"name": "O'Hare International Airport", "city": "Chicago", "country": "United States", "countryCode": "US", "continent": "North America", "iata": "ORD", "icao": "KORD", "lat": 41.9786, "lon": -87.9048, "alt": 668, "tz": "America/Chicago"},
  {"name": "Toronto Pearson International Airport", "city": "Toronto", "country": "Canada", "countryCode": "CA", "continent": "North America", "iata": "YYZ", "icao": "CYYZ", "lat": 43.6772, "lon": -79.6306, "alt": 569, "tz": "America/Toronto"},
  {"name": "São Paulo/Guarulhos-Governador André Franco Montoro International Airport", "city": "São Paulo", "country": "Brazil", "countryCode": "BR", "continent": "South America", "iata": "GRU", "icao": "SBGR", "lat": -23.4356, "lon": -46.4731, "alt": 2459, "tz": "America/Sao_Paulo"},
  {"name": "El Dorado International Airport", "city": "Bogotá", "country": "Colombia", "countryCode": "CO", "continent": "South America", "iata": "BOG", "icao": "SKBO", "lat": 4.7016, "lon": -74.1469, "alt": 8361, "tz": "America/Bogota"},
  {"name": "Jorge Chávez International Airport", "city": "Lima", "country": "Peru", "countryCode": "PE", "continent": "South America", "iata": "LIM", "icao": "SPJC", "lat": -12.0219, "lon": -77.1143, "alt": 113, "tz": "America/Lima"}
]
